[
  { "code": "NDLS", "name": "New Delhi", "lat": 28.6424, "lon": 77.2194, "zone": "NR", "state": "Delhi" },
  { "code": "NZM", "name": "Hazrat Nizamuddin", "lat": 28.5896, "lon": 77.2517, "zone": "NR", "state": "Delhi" },
  { "code": "DLI", "name": "Old Delhi", "lat": 28.658, "lon": 77.23, "zone": "NR", "state": "Delhi" },
  { "code": "ANVT", "name": "Anand Vihar Terminal", "lat": 28.6118, "lon": 77.3162, "zone": "NR", "state": "Delhi" },
  { "code": "DEE", "name": "Delhi Sarai Rohilla", "lat": 28.666, "lon": 77.1873, "zone": "NR", "state": "Delhi" },
  { "code": "UMB", "name": "Ambala Cantt", "lat": 30.3753, "lon": 76.827, "zone": "NR", "state": "Haryana" },
  { "code": "LDH", "name": "Ludhiana", "lat": 30.8642, "lon": 75.848, "zone": "NR", "state": "Punjab" },
  { "code": "ASR", "name": "Amritsar", "lat": 31.634, "lon": 74.8723, "zone": "NR", "state": "Punjab" },
  { "code": "CDG", "name": "Chandigarh", "lat": 30.6942, "lon": 76.7561, "zone": "NR", "state": "Chandigarh" },
  { "code": "FZR", "name": "Firozpur Cantt", "lat": 30.935, "lon": 74.607, "zone": "NR", "state": "Punjab" },
  { "code": "PTK", "name": "Pathankot", "lat": 32.27, "lon": 75.652, "zone": "NR", "state": "Punjab" },
  { "code": "HW", "name": "Haridwar", "lat": 29.9457, "lon": 78.1642, "zone": "NR", "state": "Uttarakhand" },
  { "code": "DDN", "name": "Dehradun", "lat": 30.3165, "lon": 78.0322, "zone": "NR", "state": "Uttarakhand" },
  { "code": "MB", "name": "Moradabad", "lat": 28.8386, "lon": 78.7733, "zone": "NR", "state": "Uttar Pradesh" },
  { "code": "BE", "name": "Bareilly", "lat": 28.367, "lon": 79.4304, "zone": "NR", "state": "Uttar Pradesh" },
  { "code": "SRE", "name": "Saharanpur", "lat": 29.964, "lon": 77.546, "zone": "NR", "state": "Uttar Pradesh" },
  { "code": "LKO", "name": "Lucknow", "lat": 26.8467, "lon": 80.9462, "zone": "NR", "state": "Uttar Pradesh" },
  { "code": "CNB", "name": "Kanpur Central", "lat": 26.4499, "lon": 80.3319, "zone": "NCR", "state": "Uttar Pradesh" },
  { "code": "PRYJ", "name": "Prayagraj", "lat": 25.4358, "lon": 81.8463, "zone": "NCR", "state": "Uttar Pradesh" },
  { "code": "ALD", "name": "Allahabad Jn", "lat": 25.4467, "lon": 81.884, "zone": "NCR", "state": "Uttar Pradesh" },
  { "code": "BSB", "name": "Varanasi", "lat": 25.3176, "lon": 82.9739, "zone": "NER", "state": "Uttar Pradesh" },
  { "code": "GKP", "name": "Gorakhpur", "lat": 26.7606, "lon": 83.3732, "zone": "NER", "state": "Uttar Pradesh" },
  { "code": "AGC", "name": "Agra Cantt", "lat": 27.1557, "lon": 77.9629, "zone": "NCR", "state": "Uttar Pradesh" },
  { "code": "TDL", "name": "Tundla Jn", "lat": 27.2075, "lon": 78.2365, "zone": "NCR", "state": "Uttar Pradesh" },
  { "code": "ALJN", "name": "Aligarh", "lat": 27.8974, "lon": 78.088, "zone": "NCR", "state": "Uttar Pradesh" },
  { "code": "MTJ", "name": "Mathura", "lat": 27.4924, "lon": 77.6737, "zone": "NCR", "state": "Uttar Pradesh" },
  { "code": "JHS", "name": "Jhansi", "lat": 25.4484, "lon": 78.5685, "zone": "NCR", "state": "Madhya Pradesh" },
  { "code": "IZN", "name": "Izzatnagar", "lat": 28.367, "lon": 79.4304, "zone": "NER", "state": "Uttar Pradesh" },
  { "code": "GD", "name": "Gonda", "lat": 27.13, "lon": 81.97, "zone": "NER", "state": "Uttar Pradesh" },
  { "code": "BCY", "name": "Balrampur", "lat": 27.42, "lon": 82.18, "zone": "NER", "state": "Uttar Pradesh" },
  { "code": "BSC", "name": "Bulandshahr", "lat": 28.4069, "lon": 77.8498, "zone": "NR", "state": "Uttar Pradesh" },
  { "code": "PNBE", "name": "Patna Jn", "lat": 25.6026, "lon": 85.1376, "zone": "ECR", "state": "Bihar" },
  { "code": "GAYA", "name": "Gaya Jn", "lat": 24.7914, "lon": 84.9994, "zone": "ECR", "state": "Bihar" },
  { "code": "MGS", "name": "Mughal Sarai", "lat": 25.2796, "lon": 83.1192, "zone": "ECR", "state": "Uttar Pradesh" },
  { "code": "DDU", "name": "Pandit DD Upadhyaya", "lat": 25.2796, "lon": 83.1192, "zone": "ECR", "state": "Uttar Pradesh" },
  { "code": "MFP", "name": "Muzaffarpur", "lat": 26.1209, "lon": 85.3647, "zone": "ECR", "state": "Bihar" },
  { "code": "SPJ", "name": "Samastipur", "lat": 25.8636, "lon": 85.7783, "zone": "ECR", "state": "Bihar" },
  { "code": "BGP", "name": "Bhagalpur", "lat": 25.2425, "lon": 86.9842, "zone": "ECR", "state": "Bihar" },
  { "code": "SEE", "name": "Sonpur", "lat": 25.71, "lon": 85.18, "zone": "ECR", "state": "Bihar" },
  { "code": "DNR", "name": "Danapur", "lat": 25.62, "lon": 85.04, "zone": "ECR", "state": "Bihar" },
  { "code": "RJPB", "name": "Rajendra Nagar", "lat": 25.59, "lon": 85.16, "zone": "ECR", "state": "Bihar" },
  { "code": "RNC", "name": "Ranchi", "lat": 23.3441, "lon": 85.3096, "zone": "SER", "state": "Jharkhand" },
  { "code": "TATA", "name": "Tatanagar", "lat": 22.7924, "lon": 86.1764, "zone": "SER", "state": "Jharkhand" },
  { "code": "CKP", "name": "Chakradharpur", "lat": 22.6765, "lon": 85.6289, "zone": "SER", "state": "Jharkhand" },
  { "code": "DHN", "name": "Dhanbad", "lat": 23.7957, "lon": 86.4304, "zone": "ECR", "state": "Jharkhand" },
  { "code": "BKSC", "name": "Bokaro Steel City", "lat": 23.6693, "lon": 85.9644, "zone": "SER", "state": "Jharkhand" },
  { "code": "HZB", "name": "Hazaribagh Road", "lat": 23.9916, "lon": 85.3564, "zone": "ECR", "state": "Jharkhand" },
  { "code": "GMO", "name": "Gomoh", "lat": 23.8727, "lon": 86.1548, "zone": "ECR", "state": "Jharkhand" },
  { "code": "JP", "name": "Jaipur", "lat": 26.9124, "lon": 75.7873, "zone": "NWR", "state": "Rajasthan" },
  { "code": "GADJ", "name": "Gandhinagar Jaipur", "lat": 26.8744, "lon": 75.8124, "zone": "NWR", "state": "Rajasthan" },
  { "code": "JU", "name": "Jodhpur", "lat": 26.2389, "lon": 73.0243, "zone": "NWR", "state": "Rajasthan" },
  { "code": "AII", "name": "Ajmer", "lat": 26.4499, "lon": 74.6399, "zone": "NWR", "state": "Rajasthan" },
  { "code": "BKN", "name": "Bikaner", "lat": 28.0229, "lon": 73.3119, "zone": "NWR", "state": "Rajasthan" },
  { "code": "BHL", "name": "Bhilwara", "lat": 25.3463, "lon": 74.635, "zone": "NWR", "state": "Rajasthan" },
  { "code": "UDZ", "name": "Udaipur City", "lat": 24.5854, "lon": 73.7125, "zone": "NWR", "state": "Rajasthan" },
  { "code": "KOTA", "name": "Kota", "lat": 25.1802, "lon": 75.833, "zone": "WCR", "state": "Rajasthan" },
  { "code": "SWM", "name": "Sawai Madhopur", "lat": 26.02, "lon": 76.36, "zone": "WCR", "state": "Rajasthan" },
  { "code": "ABR", "name": "Abu Road", "lat": 24.48, "lon": 72.78, "zone": "NWR", "state": "Rajasthan" },
  { "code": "LUNI", "name": "Luni", "lat": 26.12, "lon": 73.07, "zone": "NWR", "state": "Rajasthan" },
  { "code": "FA", "name": "Phulera", "lat": 26.87, "lon": 75.25, "zone": "NWR", "state": "Rajasthan" },
  { "code": "FL", "name": "Phulera Jn", "lat": 26.874, "lon": 75.245, "zone": "NWR", "state": "Rajasthan" },
  { "code": "BPL", "name": "Bhopal", "lat": 23.2599, "lon": 77.4126, "zone": "WCR", "state": "Madhya Pradesh" },
  { "code": "JBP", "name": "Jabalpur", "lat": 23.1815, "lon": 79.9864, "zone": "WCR", "state": "Madhya Pradesh" },
  { "code": "ET", "name": "Itarsi", "lat": 22.613, "lon": 77.76, "zone": "WCR", "state": "Madhya Pradesh" },
  { "code": "KTE", "name": "Katni", "lat": 23.83, "lon": 80.39, "zone": "WCR", "state": "Madhya Pradesh" },
  { "code": "GWL", "name": "Gwalior", "lat": 26.2183, "lon": 78.1828, "zone": "NCR", "state": "Madhya Pradesh" },
  { "code": "INDB", "name": "Indore", "lat": 22.7196, "lon": 75.8577, "zone": "WR", "state": "Madhya Pradesh" },
  { "code": "RTM", "name": "Ratlam", "lat": 23.3315, "lon": 75.0367, "zone": "WR", "state": "Madhya Pradesh" },
  { "code": "UJN", "name": "Ujjain", "lat": 23.1765, "lon": 75.7885, "zone": "WR", "state": "Madhya Pradesh" },
  { "code": "SNA", "name": "Satna", "lat": 24.58, "lon": 80.83, "zone": "WCR", "state": "Madhya Pradesh" },
  { "code": "SGO", "name": "Sagar", "lat": 23.84, "lon": 78.73, "zone": "WCR", "state": "Madhya Pradesh" },
  { "code": "CSMT", "name": "Mumbai CSMT", "lat": 18.94, "lon": 72.8347, "zone": "CR", "state": "Maharashtra" },
  { "code": "LTT", "name": "Lokmanya Tilak", "lat": 19.0726, "lon": 72.961, "zone": "CR", "state": "Maharashtra" },
  { "code": "MMCT", "name": "Mumbai Central", "lat": 18.9691, "lon": 72.8193, "zone": "WR", "state": "Maharashtra" },
  { "code": "BCT", "name": "Mumbai Central", "lat": 18.9691, "lon": 72.8193, "zone": "WR", "state": "Maharashtra" },
  { "code": "BDTS", "name": "Bandra Terminus", "lat": 19.0544, "lon": 72.8402, "zone": "WR", "state": "Maharashtra" },
  { "code": "NGP", "name": "Nagpur", "lat": 21.1458, "lon": 79.0882, "zone": "CR", "state": "Maharashtra" },
  { "code": "PUNE", "name": "Pune Jn", "lat": 18.5286, "lon": 73.8742, "zone": "CR", "state": "Maharashtra" },
  { "code": "PUN", "name": "Pune", "lat": 18.5286, "lon": 73.8742, "zone": "CR", "state": "Maharashtra" },
  { "code": "NED", "name": "Nanded", "lat": 19.1383, "lon": 77.321, "zone": "SCR", "state": "Maharashtra" },
  { "code": "AWB", "name": "Aurangabad", "lat": 19.8762, "lon": 75.3433, "zone": "SCR", "state": "Maharashtra" },
  { "code": "BSL", "name": "Bhusaval", "lat": 21.0448, "lon": 75.7857, "zone": "CR", "state": "Maharashtra" },
  { "code": "MMR", "name": "Manmad", "lat": 20.2511, "lon": 74.4394, "zone": "CR", "state": "Maharashtra" },
  { "code": "SUR", "name": "Solapur", "lat": 17.6599, "lon": 75.9064, "zone": "CR", "state": "Maharashtra" },
  { "code": "KOP", "name": "Kolhapur", "lat": 16.695, "lon": 74.2183, "zone": "CR", "state": "Maharashtra" },
  { "code": "DD", "name": "Daund", "lat": 18.46, "lon": 74.58, "zone": "CR", "state": "Maharashtra" },
  { "code": "ADI", "name": "Ahmedabad", "lat": 23.0225, "lon": 72.5714, "zone": "WR", "state": "Gujarat" },
  { "code": "BRC", "name": "Vadodara", "lat": 22.3119, "lon": 73.1723, "zone": "WR", "state": "Gujarat" },
  { "code": "ST", "name": "Surat", "lat": 21.1702, "lon": 72.8311, "zone": "WR", "state": "Gujarat" },
  { "code": "RJT", "name": "Rajkot", "lat": 22.3039, "lon": 70.8022, "zone": "WR", "state": "Gujarat" },
  { "code": "GIMB", "name": "Gandhidham", "lat": 23.0753, "lon": 70.1337, "zone": "WR", "state": "Gujarat" },
  { "code": "BVP", "name": "Bhavnagar", "lat": 21.7645, "lon": 72.1519, "zone": "WR", "state": "Gujarat" },
  { "code": "OKHA", "name": "Okha", "lat": 22.4674, "lon": 69.0728, "zone": "WR", "state": "Gujarat" },
  { "code": "VRL", "name": "Veraval", "lat": 20.9074, "lon": 70.3629, "zone": "WR", "state": "Gujarat" },
  { "code": "PBR", "name": "Porbandar", "lat": 21.6417, "lon": 69.6293, "zone": "WR", "state": "Gujarat" },
  { "code": "VG", "name": "Viramgam", "lat": 23.11, "lon": 72.03, "zone": "WR", "state": "Gujarat" },
  { "code": "SBC", "name": "Bengaluru City", "lat": 12.9784, "lon": 77.5708, "zone": "SWR", "state": "Karnataka" },
  { "code": "YPR", "name": "Yesvantpur", "lat": 13.015, "lon": 77.538, "zone": "SWR", "state": "Karnataka" },
  { "code": "SMVB", "name": "SMVT Bengaluru", "lat": 13.0358, "lon": 77.7228, "zone": "SWR", "state": "Karnataka" },
  { "code": "UBL", "name": "Hubli", "lat": 15.3647, "lon": 75.124, "zone": "SWR", "state": "Karnataka" },
  { "code": "MYS", "name": "Mysuru", "lat": 12.2958, "lon": 76.6394, "zone": "SWR", "state": "Karnataka" },
  { "code": "DWR", "name": "Dharwad", "lat": 15.4589, "lon": 75.0078, "zone": "SWR", "state": "Karnataka" },
  { "code": "BGM", "name": "Belgaum", "lat": 15.8497, "lon": 74.4977, "zone": "SWR", "state": "Karnataka" },
  { "code": "GDG", "name": "Gadag", "lat": 15.43, "lon": 75.63, "zone": "SWR", "state": "Karnataka" },
  { "code": "BIDR", "name": "Bidar", "lat": 17.9104, "lon": 77.5199, "zone": "SCR", "state": "Karnataka" },
  { "code": "GR", "name": "Gulbarga", "lat": 17.3297, "lon": 76.8343, "zone": "SCR", "state": "Karnataka" },
  { "code": "BAY", "name": "Ballari", "lat": 15.1394, "lon": 76.9214, "zone": "SWR", "state": "Karnataka" },
  { "code": "MAJN", "name": "Mangaluru", "lat": 12.8698, "lon": 74.8431, "zone": "SR", "state": "Karnataka" },
  { "code": "MAS", "name": "Chennai Central", "lat": 13.0827, "lon": 80.2707, "zone": "SR", "state": "Tamil Nadu" },
  { "code": "MS", "name": "Chennai Egmore", "lat": 13.0794, "lon": 80.2759, "zone": "SR", "state": "Tamil Nadu" },
  { "code": "CBE", "name": "Coimbatore", "lat": 11.0018, "lon": 76.9628, "zone": "SR", "state": "Tamil Nadu" },
  { "code": "MDU", "name": "Madurai", "lat": 9.9252, "lon": 78.1198, "zone": "SR", "state": "Tamil Nadu" },
  { "code": "TPJ", "name": "Tiruchirappalli", "lat": 10.7905, "lon": 78.7047, "zone": "SR", "state": "Tamil Nadu" },
  { "code": "SA", "name": "Salem", "lat": 11.6643, "lon": 78.146, "zone": "SR", "state": "Tamil Nadu" },
  { "code": "ED", "name": "Erode", "lat": 11.341, "lon": 77.7172, "zone": "SR", "state": "Tamil Nadu" },
  { "code": "TEN", "name": "Tirunelveli", "lat": 8.7139, "lon": 77.7567, "zone": "SR", "state": "Tamil Nadu" },
  { "code": "NCJ", "name": "Nagercoil", "lat": 8.1833, "lon": 77.4119, "zone": "SR", "state": "Tamil Nadu" },
  { "code": "CAPE", "name": "Kanyakumari", "lat": 8.0883, "lon": 77.5385, "zone": "SR", "state": "Tamil Nadu" },
  { "code": "VM", "name": "Villupuram", "lat": 11.9401, "lon": 79.4861, "zone": "SR", "state": "Tamil Nadu" },
  { "code": "TNVL", "name": "Tirunelveli", "lat": 8.7279, "lon": 77.6983, "zone": "SR", "state": "Tamil Nadu" },
  { "code": "CVP", "name": "Cuddalore", "lat": 11.748, "lon": 79.7714, "zone": "SR", "state": "Tamil Nadu" },
  { "code": "TVC", "name": "Thiruvananthapuram", "lat": 8.5241, "lon": 76.9366, "zone": "SR", "state": "Kerala" },
  { "code": "ERS", "name": "Ernakulam Jn", "lat": 9.9816, "lon": 76.2999, "zone": "SR", "state": "Kerala" },
  { "code": "SRR", "name": "Shoranur", "lat": 10.765, "lon": 76.271, "zone": "SR", "state": "Kerala" },
  { "code": "CLT", "name": "Kozhikode", "lat": 11.2588, "lon": 75.7804, "zone": "SR", "state": "Kerala" },
  { "code": "PGT", "name": "Palakkad", "lat": 10.7867, "lon": 76.6548, "zone": "SR", "state": "Kerala" },
  { "code": "QLN", "name": "Kollam", "lat": 8.8932, "lon": 76.6141, "zone": "SR", "state": "Kerala" },
  { "code": "TCR", "name": "Thrissur", "lat": 10.5276, "lon": 76.2144, "zone": "SR", "state": "Kerala" },
  { "code": "CAN", "name": "Kannur", "lat": 11.8745, "lon": 75.3704, "zone": "SR", "state": "Kerala" },
  { "code": "KGQ", "name": "Kasaragod", "lat": 12.4996, "lon": 74.9869, "zone": "SR", "state": "Kerala" },
  { "code": "SC", "name": "Secunderabad", "lat": 17.4399, "lon": 78.4983, "zone": "SCR", "state": "Telangana" },
  { "code": "HYB", "name": "Hyderabad", "lat": 17.385, "lon": 78.4867, "zone": "SCR", "state": "Telangana" },
  { "code": "KCG", "name": "Kacheguda", "lat": 17.3936, "lon": 78.4957, "zone": "SCR", "state": "Telangana" },
  { "code": "BZA", "name": "Vijayawada", "lat": 16.5062, "lon": 80.648, "zone": "SCR", "state": "Andhra Pradesh" },
  { "code": "GNT", "name": "Guntur", "lat": 16.3067, "lon": 80.4365, "zone": "SCR", "state": "Andhra Pradesh" },
  { "code": "VSKP", "name": "Visakhapatnam", "lat": 17.6868, "lon": 83.2185, "zone": "ECoR", "state": "Andhra Pradesh" },
  { "code": "TPTY", "name": "Tirupati", "lat": 13.6288, "lon": 79.4192, "zone": "SCR", "state": "Andhra Pradesh" },
  { "code": "OGL", "name": "Ongole", "lat": 15.5057, "lon": 80.0499, "zone": "SCR", "state": "Andhra Pradesh" },
  { "code": "GDR", "name": "Gudur", "lat": 14.15, "lon": 79.85, "zone": "SCR", "state": "Andhra Pradesh" },
  { "code": "GTL", "name": "Guntakal", "lat": 15.1667, "lon": 77.3667, "zone": "SCR", "state": "Andhra Pradesh" },
  { "code": "KRNT", "name": "Kurnool", "lat": 15.8281, "lon": 78.0373, "zone": "SCR", "state": "Andhra Pradesh" },
  { "code": "BBS", "name": "Bhubaneswar", "lat": 20.2961, "lon": 85.8245, "zone": "ECoR", "state": "Odisha" },
  { "code": "CTC", "name": "Cuttack", "lat": 20.4686, "lon": 85.883, "zone": "ECoR", "state": "Odisha" },
  { "code": "SBP", "name": "Sambalpur", "lat": 21.4669, "lon": 83.9756, "zone": "ECoR", "state": "Odisha" },
  { "code": "TLHR", "name": "Titlagarh", "lat": 20.29, "lon": 83.15, "zone": "ECoR", "state": "Odisha" },
  { "code": "JSG", "name": "Jharsuguda", "lat": 21.8553, "lon": 84.0076, "zone": "SER", "state": "Odisha" },
  { "code": "ROU", "name": "Rourkela", "lat": 22.2604, "lon": 84.8536, "zone": "SER", "state": "Odisha" },
  { "code": "PURI", "name": "Puri", "lat": 19.8106, "lon": 85.8314, "zone": "ECoR", "state": "Odisha" },
  { "code": "BAM", "name": "Brahmapur", "lat": 19.3149, "lon": 84.7941, "zone": "ECoR", "state": "Odisha" },
  { "code": "HWH", "name": "Howrah", "lat": 22.5851, "lon": 88.3426, "zone": "ER", "state": "West Bengal" },
  { "code": "SDAH", "name": "Sealdah", "lat": 22.5651, "lon": 88.3699, "zone": "ER", "state": "West Bengal" },
  { "code": "NJP", "name": "New Jalpaiguri", "lat": 26.7057, "lon": 88.2636, "zone": "NFR", "state": "West Bengal" },
  { "code": "MLDT", "name": "Malda Town", "lat": 25.0108, "lon": 88.1418, "zone": "ER", "state": "West Bengal" },
  { "code": "BWN", "name": "Barddhaman", "lat": 23.2324, "lon": 87.8615, "zone": "ER", "state": "West Bengal" },
  { "code": "ASN", "name": "Asansol", "lat": 23.6833, "lon": 86.9667, "zone": "ER", "state": "West Bengal" },
  { "code": "KGP", "name": "Kharagpur", "lat": 22.346, "lon": 87.3119, "zone": "SER", "state": "West Bengal" },
  { "code": "BDC", "name": "Bandel", "lat": 22.93, "lon": 88.38, "zone": "ER", "state": "West Bengal" },
  { "code": "DGR", "name": "Durgapur", "lat": 23.55, "lon": 87.32, "zone": "ER", "state": "West Bengal" },
  { "code": "GHY", "name": "Guwahati", "lat": 26.1445, "lon": 91.7362, "zone": "NFR", "state": "Assam" },
  { "code": "DBRG", "name": "Dibrugarh", "lat": 27.4728, "lon": 94.912, "zone": "NFR", "state": "Assam" },
  { "code": "RNY", "name": "Rangiya", "lat": 26.45, "lon": 91.63, "zone": "NFR", "state": "Assam" },
  { "code": "AGTL", "name": "Agartala", "lat": 23.8315, "lon": 91.2868, "zone": "NFR", "state": "Tripura" },
  { "code": "KYQ", "name": "Kamakhya", "lat": 26.16, "lon": 91.69, "zone": "NFR", "state": "Assam" },
  { "code": "LMG", "name": "Lumding", "lat": 25.75, "lon": 93.17, "zone": "NFR", "state": "Assam" },
  { "code": "JTTN", "name": "Jiribam", "lat": 24.8, "lon": 93.12, "zone": "NFR", "state": "Manipur" },
  { "code": "SCL", "name": "Silchar", "lat": 24.82, "lon": 92.79, "zone": "NFR", "state": "Assam" },
  { "code": "NBQ", "name": "New Bongaigaon", "lat": 26.48, "lon": 90.56, "zone": "NFR", "state": "Assam" },
  { "code": "RDP", "name": "Rangia", "lat": 26.46, "lon": 91.62, "zone": "NFR", "state": "Assam" },
  { "code": "TSK", "name": "Tinsukia", "lat": 27.49, "lon": 95.36, "zone": "NFR", "state": "Assam" },
  { "code": "NHLN", "name": "Naharlagun", "lat": 27.104, "lon": 93.695, "zone": "NFR", "state": "Arunachal Pradesh" },
  { "code": "DMV", "name": "Dimapur", "lat": 25.9117, "lon": 93.7217, "zone": "NFR", "state": "Nagaland" },
  { "code": "BHRB", "name": "Bairabi", "lat": 24.189, "lon": 92.677, "zone": "NFR", "state": "Mizoram" },
  { "code": "JUC", "name": "Jalandhar City", "lat": 31.326, "lon": 75.5762, "zone": "NR", "state": "Punjab" },
  { "code": "PTA", "name": "Pathankot Cantt", "lat": 32.27, "lon": 75.652, "zone": "NR", "state": "Punjab" },
  { "code": "BTI", "name": "Bathinda", "lat": 30.21, "lon": 74.95, "zone": "NR", "state": "Punjab" },
  { "code": "ROK", "name": "Rohtak", "lat": 28.8955, "lon": 76.6066, "zone": "NR", "state": "Haryana" },
  { "code": "HIS", "name": "Hisar", "lat": 29.1492, "lon": 75.7217, "zone": "NR", "state": "Haryana" },
  { "code": "KNL", "name": "Karnal", "lat": 29.6857, "lon": 76.9905, "zone": "NR", "state": "Haryana" },
  { "code": "KLK", "name": "Kalka", "lat": 30.84, "lon": 76.95, "zone": "NR", "state": "Haryana" },
  { "code": "SML", "name": "Shimla", "lat": 31.1048, "lon": 77.1734, "zone": "NR", "state": "Himachal Pradesh" },
  { "code": "JAT", "name": "Jammu Tawi", "lat": 32.7266, "lon": 74.857, "zone": "NR", "state": "Jammu and Kashmir" },
  { "code": "SVDK", "name": "Shri Mata Vaishno Devi Katra", "lat": 32.99, "lon": 74.95, "zone": "NR", "state": "Jammu and Kashmir" },
  { "code": "RK", "name": "Rishikesh", "lat": 30.0869, "lon": 78.2676, "zone": "NR", "state": "Uttarakhand" },
  { "code": "KGM", "name": "Kathgodam", "lat": 29.2167, "lon": 79.5231, "zone": "NR", "state": "Uttarakhand" },
  { "code": "KTM", "name": "Kathgodam", "lat": 29.2167, "lon": 79.5231, "zone": "NR", "state": "Uttarakhand" },
  { "code": "RMR", "name": "Ramnagar", "lat": 29.395, "lon": 79.127, "zone": "NR", "state": "Uttarakhand" },
  { "code": "R", "name": "Raipur", "lat": 21.2514, "lon": 81.6296, "zone": "SECR", "state": "Chhattisgarh" },
  { "code": "BSP", "name": "Bilaspur", "lat": 22.0796, "lon": 82.1391, "zone": "SECR", "state": "Chhattisgarh" },
  { "code": "DURG", "name": "Durg", "lat": 21.19, "lon": 81.28, "zone": "SECR", "state": "Chhattisgarh" },
  { "code": "APR", "name": "Anuppur", "lat": 23.1, "lon": 81.7, "zone": "SECR", "state": "Madhya Pradesh" },
  { "code": "PND", "name": "Pendra Road", "lat": 22.78, "lon": 81.93, "zone": "SECR", "state": "Chhattisgarh" },
  { "code": "MAO", "name": "Madgaon", "lat": 15.358, "lon": 73.9557, "zone": "KRCL", "state": "Goa" },
  { "code": "KRMI", "name": "Karmali", "lat": 15.45, "lon": 73.87, "zone": "KRCL", "state": "Goa" },
  { "code": "VSG", "name": "Vasco da Gama", "lat": 15.398, "lon": 73.811, "zone": "SWR", "state": "Goa" },
  { "code": "LD", "name": "Londa", "lat": 15.37, "lon": 74.52, "zone": "SWR", "state": "Karnataka" },
  { "code": "RN", "name": "Ratnagiri", "lat": 17, "lon": 73.3, "zone": "KRCL", "state": "Maharashtra" },
  { "code": "ROHA", "name": "Roha", "lat": 18.44, "lon": 73.12, "zone": "CR", "state": "Maharashtra" }
]
